City_ID,City,Lat,Lng,Max Temp,Humidity,Cloudiness,Wind Speed,Country,Date
0,flin flon,54.7682,-101.865,-11.01,94,15,1.8,CA,1700195224
1,acarau,-2.8856,-40.12,26.43,80,73,6.89,BR,1700195224
2,shimoda,34.6667,138.95,19.2,82,100,10.34,JP,1700195225
3,margaret river,-33.95,115.0667,23.36,41,0,3.52,AU,1700195225
4,buka,40.8108,69.1986,15.49,17,100,1.13,UZ,1700195225
5,edinburgh of the seven seas,-37.0676,-12.3116,13.91,69,100,7.05,SH,1700195225
6,port-aux-francais,-49.35,70.2167,4.74,91,100,11.54,TF,1700195225
7,port mathurin,-19.6833,63.4167,25.2,78,93,7.25,MU,1700195226
8,ushuaia,-54.8,-68.3,5.81,87,40,2.06,AR,1700195020
9,isafjordur,66.0755,-23.124,1.95,76,100,0.8,IS,1700195226
10,khandyga,62.6667,135.6,-16.15,89,92,2.41,RU,1700195226
11,ust-nera,64.5667,143.2,-24.39,96,100,2.99,RU,1700195226
12,margate,51.3813,1.3862,5.73,91,98,4.99,GB,1700195226
13,remire-montjoly,4.9167,-52.2667,27.02,89,40,2.06,GF,1700195227
14,egilsstadir,65.2653,-14.3948,-5.05,100,100,1.03,IS,1700195227
15,chibougamau,49.9168,-74.3659,1.79,64,20,5.66,CA,1700195227
16,papatowai,-46.5619,169.4708,9.51,81,85,5.29,NZ,1700195227
17,zhaozhou,45.6833,125.3167,-6.8,83,31,2.62,CN,1700195227
18,kruisfontein,-34.0033,24.7314,17.88,69,74,2.53,ZA,1700195228
19,kavaratti,10.5669,72.642,28.49,74,100,3.16,IN,1700195228
20,haiku-pauwela,20.9219,-156.3051,23.36,87,100,3.6,US,1700195228
21,tazacorte,28.629,-17.9293,25.08,29,0,3.09,ES,1700195228
22,puerto san jose,13.9256,-90.8244,25.92,85,19,2.31,GT,1700195228
23,linxia chengguanzhen,35.6003,103.2064,7.6,16,0,1.03,CN,1700195229
24,longyearbyen,78.2186,15.6401,-12.09,72,75,5.14,SJ,1700195229
25,kailua-kona,19.6406,-155.9956,24.17,89,96,0.89,US,1700194938
26,prince rupert,54.3161,-130.3201,8.83,95,100,15.95,CA,1700195227
27,carnarvon,-24.8667,113.6333,28.06,57,0,4.61,AU,1700195229
28,happy valley-goose bay,53.3168,-60.3315,-0.83,80,75,5.14,CA,1700195229
29,ambon,-3.6954,128.1814,32.08,70,40,4.12,ID,1700195230
30,yuzhno-kurilsk,44.0306,145.8556,9.65,73,100,11.69,RU,1700195230
31,hithadhoo,-0.6,73.0833,28.04,78,41,7.09,MV,1700195231
32,invercargill,-46.4,168.35,11.68,69,56,6.26,NZ,1700195025
33,adamstown,-25.066,-130.1015,22.53,83,100,2.72,PN,1700195231
34,indramayu,-6.3264,108.32,30.55,61,97,2.31,ID,1700195232
35,puerto natales,-51.7236,-72.4875,2.5,93,48,1.61,CL,1700195140
36,waitangi,-43.9535,-176.5597,15.46,90,100,4.02,NZ,1700195233
37,fort bragg,35.139,-79.006,15.82,81,0,1.54,US,1700195233
38,wailua homesteads,22.0669,-159.378,26.24,75,40,7.2,US,1700195233
39,georgetown,5.4112,100.3354,31.64,72,20,2.06,MY,1700194979
40,bethel,41.3712,-73.414,10.91,78,9,1.13,US,1700195233
41,buwenge,0.6422,33.1744,18.13,97,75,0.62,UG,1700195233
42,alliance,40.9153,-81.1059,15.78,51,57,5.01,US,1700195234
43,mount gambier,-37.8333,140.7667,18.3,44,26,4.31,AU,1700195234
44,grytviken,-54.2811,-36.5092,-0.02,85,100,4.35,GS,1700195234
45,college,64.8569,-147.8028,-2.83,87,75,0.0,US,1700195234
46,punta cana,18.5818,-68.4043,27.87,74,75,4.12,DO,1700194963
47,lihue,21.9789,-159.3672,26.58,68,40,7.2,US,1700195235
48,puerto ayora,-0.7393,-90.3518,23.08,100,88,1.79,EC,1700195235
49,nuuk,64.1835,-51.7216,-2.66,86,84,0.0,GL,1700195235
50,pisco,-13.7,-76.2167,20.01,82,99,6.69,PE,1700195235
51,bhamo,24.2667,97.2333,19.67,100,100,0.91,MM,1700195236
52,utrik,11.2278,169.8474,28.25,78,12,6.44,MH,1700195236
53,muroto-misakicho,33.2833,134.15,16.52,51,6,8.93,JP,1700195236
54,yellowknife,62.456,-114.3525,-3.71,99,100,5.81,CA,1700195041
55,caras,-9.0467,-77.8114,16.76,88,100,0.13,PE,1700195236
56,bilibino,68.0546,166.4372,-21.0,100,100,0.32,RU,1700195237
57,midvagur,62.0511,-7.1939,3.46,81,69,0.0,FO,1700195237
58,port augusta,-32.5,137.7667,27.73,19,0,6.74,AU,1700195238
59,tralee,52.2704,-9.7026,8.48,83,78,4.03,IE,1700195238
60,shizuishan,39.2333,106.7694,5.68,17,0,0.81,CN,1700195238
61,papao,-17.75,-149.55,27.82,81,79,11.6,PF,1700195239
62,west island,-12.1568,96.8225,28.99,61,40,3.6,CC,1700195239
63,santana,-0.0583,-51.1817,28.1,78,0,3.6,BR,1700195239
64,huanta,-12.9333,-74.25,15.59,70,60,1.47,PE,1700195239
65,ilulissat,69.2167,-51.1,-6.99,68,21,0.0,GL,1700195239
66,gracemere,-23.4333,150.45,35.95,28,23,5.14,AU,1700195240
67,taoudenni,22.6783,-3.9836,22.94,20,95,4.61,ML,1700195240
68,al hazm,16.1641,44.7769,23.76,45,77,0.98,YE,1700195240
69,bredasdorp,-34.5322,20.0403,17.5,78,100,2.36,ZA,1700195240
70,zhu cheng city,35.995,119.4026,6.95,23,0,8.85,CN,1700195240
71,port elizabeth,-33.918,25.5701,19.62,83,0,3.09,ZA,1700195241
72,hobyo,5.3505,48.5268,28.19,75,43,2.64,SO,1700195241
73,kingston,17.997,-76.7936,24.53,99,100,4.12,JM,1700195223
74,acaponeta,22.4964,-105.3594,24.3,88,0,0.93,MX,1700195241
75,villa tupac amaru,-13.7,-76.15,19.57,82,99,6.69,PE,1700195241
76,saint joseph,39.7686,-94.8466,14.78,77,100,3.6,US,1700194972
77,nelson bay,-32.7167,152.15,20.62,65,49,5.36,AU,1700195242
78,lebu,-37.6167,-73.65,12.54,96,100,7.46,CL,1700195242
79,nova vicosa,-17.8919,-39.3719,24.51,88,18,6.57,BR,1700195242
80,tura,25.5198,90.2201,22.34,80,99,0.75,IN,1700195242
81,klyuchi,52.2667,79.1667,5.12,88,100,0.75,RU,1700195242
82,lompoc,34.6391,-120.4579,17.66,86,0,4.92,US,1700195242
83,kayangel,8.0823,134.7173,29.24,78,100,3.43,PW,1700195242
84,ribeira grande,38.5167,-28.7,20.99,92,100,8.49,PT,1700195243
85,bintulu,3.1667,113.0333,32.23,66,20,1.54,MY,1700195243
86,san pedro pochutla,15.7333,-96.4667,24.56,87,4,1.08,MX,1700195243
87,kirensk,57.7853,108.1119,-2.24,71,100,6.71,RU,1700195243
88,ursulo galvan,22.7333,-98.3,22.41,82,6,2.0,MX,1700195243
89,talnakh,69.4865,88.3972,-19.85,99,92,3.75,RU,1700195244
90,kenai,60.5544,-151.2583,1.16,67,40,8.23,US,1700195244
91,tiksi,71.6872,128.8694,-27.04,100,98,2.31,RU,1700195244
92,leua,48.2156,18.6071,10.28,88,100,2.71,SK,1700195244
93,hondo,32.45,130.2,13.91,65,99,10.45,JP,1700195244
94,manismata,-2.4667,111.0333,29.44,78,93,1.93,ID,1700195244
95,port lincoln,-34.7333,135.8667,17.85,58,7,6.31,AU,1700195245
96,ponot,8.452,123.0222,28.47,75,81,4.41,PH,1700195245
97,'ali sabieh,11.1558,42.7125,22.47,89,100,5.13,DJ,1700195245
98,jalapa,19.5333,-96.9167,14.1,90,68,0.61,MX,1700195245
99,mwinilunga,-11.7358,24.4293,16.83,94,100,1.15,ZM,1700195245
100,anadyr,64.75,177.4833,-16.72,84,20,2.0,RU,1700195245
101,dudinka,69.4058,86.1778,-19.21,97,96,6.0,RU,1700195245
102,baardheere,2.3446,42.2764,26.11,82,88,3.27,SO,1700195246
103,barcelos,41.5388,-8.6151,16.06,93,99,1.0,PT,1700195246
104,keflavik,64.0049,-22.5624,5.95,87,0,3.6,IS,1700195246
105,gorom-gorom,14.4439,-0.2361,25.43,18,1,5.26,BF,1700195246
106,kodiak,57.79,-152.4072,-1.27,40,0,5.14,US,1700195246
107,dryden,49.7833,-92.7503,-3.84,80,100,5.66,CA,1700195246
108,albany,42.6001,-73.9662,8.25,83,68,1.46,US,1700194950
109,hartsville,34.374,-80.0734,17.16,82,100,2.57,US,1700195247
110,badger,64.8,-147.5333,-2.88,91,75,0.0,US,1700195247
111,darwin,-12.4611,130.8418,32.75,66,75,3.6,AU,1700195125
112,la mira,18.035,-102.3266,26.1,88,13,1.7,MX,1700195247
113,thompson,55.7435,-97.8558,-9.91,85,100,2.06,CA,1700195247
114,aasiaat,68.7098,-52.8699,-13.91,98,91,3.35,GL,1700195247
115,alice springs,-23.7,133.8833,22.75,78,100,3.09,AU,1700195248
116,dzhangala,49.2167,50.3333,6.08,78,100,3.13,KZ,1700195248
117,ryotsu-minato,38.0833,138.4333,13.52,89,100,3.61,JP,1700195248
118,pangkalanbuun,-2.6833,111.6167,28.41,85,99,1.79,ID,1700195248
119,al jawf,29.5,38.75,16.31,61,0,3.77,SA,1700195248
120,blackmans bay,-43.0167,147.3167,21.07,48,14,0.98,AU,1700195249
121,ibadan,7.3878,3.8964,22.26,87,70,0.24,NG,1700195249
122,muana,-1.5283,-49.2167,26.22,74,35,2.14,BR,1700195249
123,sake,-1.5736,29.045,16.75,95,100,0.64,CD,1700195249
124,qaqortoq,60.7167,-46.0333,-7.98,74,16,3.64,GL,1700195249
125,fuglafjordur,62.244,-6.814,3.26,61,73,3.67,FO,1700195249
126,stanley,54.868,-1.6985,4.6,95,40,1.03,GB,1700195129
127,petropavlovsk-kamchatsky,53.0452,158.6483,1.36,72,40,7.6,RU,1700195250
128,hammerfest,70.6634,23.6821,-0.75,69,75,13.89,NO,1700195250
129,lazaro cardenas,17.9583,-102.2,26.85,84,8,1.62,MX,1700195250
130,ancud,-41.8697,-73.8203,8.61,84,77,9.16,CL,1700195250
131,atafu village,-8.5421,-172.5159,29.76,71,64,3.06,TK,1700195251
132,newman,37.3138,-121.0208,15.16,91,95,1.34,US,1700195218
133,nogliki,51.8333,143.1667,-0.37,76,98,2.68,RU,1700195252
134,hermanus,-34.4187,19.2345,17.41,89,100,4.14,ZA,1700195252
135,fray luis beltran,-39.3167,-65.7667,17.97,34,100,15.79,AR,1700195252
136,mount pearl,47.5166,-52.7813,-0.48,86,100,2.06,CA,1700195252
137,iskateley,67.6803,53.1512,-16.66,99,67,2.24,RU,1700195252
138,labrador city,52.9463,-66.9114,-8.05,93,0,3.6,CA,1700195253
139,angaur state,6.906,134.13,28.53,80,98,5.88,PW,1700195253
140,kachia,9.8667,7.95,21.73,38,75,3.72,NG,1700195253
141,east ballina,-28.8667,153.5833,19.89,85,98,12.79,AU,1700195253
142,andergrove,-21.0833,149.1833,33.69,70,4,9.49,AU,1700195254
143,helston,50.1032,-5.2705,10.29,87,20,2.57,GB,1700195255
144,al ain city,24.1917,55.7606,18.79,88,40,9.77,AE,1700195255
145,kangding,30.0513,101.9603,11.56,45,100,1.83,CN,1700195255
146,martin,27.0837,-80.4164,23.96,100,95,2.02,US,1700195232
147,huancabamba,-5.2386,-79.4506,16.11,92,83,1.5,PE,1700195255
148,wladyslawowo,54.7909,18.4009,3.3,92,100,6.46,PL,1700195256
149,prince george,53.9166,-122.753,1.69,82,100,9.77,CA,1700195256
150,st. john's,47.5649,-52.7093,-0.02,86,100,2.06,CA,1700195256
151,uliastay,47.7417,96.8444,-2.89,66,0,2.16,MN,1700195256
152,gubbio,43.3545,12.5725,12.39,64,66,0.89,IT,1700195256
153,jamestown,42.097,-79.2353,14.77,43,0,4.12,US,1700195041
154,whitehorse,60.7161,-135.0538,-0.57,69,0,7.72,CA,1700195106
155,chernogorsk,53.8236,91.2842,2.76,70,0,5.0,RU,1700195257
156,kodinsk,58.6881,99.1844,0.8,97,100,3.99,RU,1700195257
157,coruripe,-10.1256,-36.1756,25.47,79,9,6.95,BR,1700195257
158,ixtapa,20.7,-105.2,26.57,89,0,1.03,MX,1700195112
159,nikolayevsk-on-amure,53.1406,140.73,-1.36,68,100,0.74,RU,1700195257
160,lospalos,-8.5186,127.0025,32.63,40,14,2.92,TL,1700195258
161,kasson,44.03,-92.7507,5.97,59,0,7.72,US,1700195258
162,olonkinbyen,70.9221,-8.7187,-1.58,84,100,2.69,SJ,1700195258
163,crane,31.3974,-102.3501,17.92,66,100,3.02,US,1700195258
164,queenstown,-31.8976,26.8753,18.48,61,99,1.86,ZA,1700195258
165,akrehamn,59.2667,5.1833,3.01,69,20,3.6,NO,1700195258
166,kotlas,61.2611,46.6556,-8.3,93,87,2.68,RU,1700195258
167,forecariah,9.4306,-13.0881,23.62,87,0,1.01,GN,1700195259
168,vorgashor,67.5833,63.95,-17.76,99,100,3.11,RU,1700195259
169,colonia menno,-22.3667,-59.8167,28.5,71,79,4.95,PY,1700195259
170,souillac,-20.5167,57.5167,25.21,88,75,1.03,MU,1700195259
171,new norfolk,-42.7826,147.0587,21.72,48,23,3.91,AU,1700195260
172,opuwo,-18.0607,13.84,20.8,81,26,1.68,NA,1700195260
173,zaozersk,69.4005,32.4476,-8.01,86,95,5.76,RU,1700195260
174,tangalle,6.024,80.7911,30.09,72,60,2.27,LK,1700195260
175,minas de marcona,-15.2119,-75.1103,14.37,89,100,6.95,PE,1700195260
176,port saint john's,-31.6229,29.5448,20.68,83,100,0.84,ZA,1700195261
177,bondo,3.8146,23.6866,20.94,100,100,0.53,CD,1700195261
178,yinchuan,38.4681,106.2731,6.23,15,0,1.86,CN,1700195261
179,amungan,15.3652,119.9582,29.48,65,25,2.75,PH,1700195261
180,enewetak,11.3474,162.3373,28.34,83,22,9.69,MH,1700195261
181,santa marinella,42.0345,11.8536,17.95,92,72,6.91,IT,1700195262
182,ponta delgada,37.7333,-25.6667,21.77,88,75,6.17,PT,1700195262
183,swakopmund,-22.6833,14.5333,16.1,90,0,0.97,NA,1700195262
184,krasnokamensk,50.0979,118.0369,-6.57,68,6,1.75,RU,1700195262
185,bandundu,-3.3167,17.3667,22.05,99,100,1.15,CD,1700195262
186,kone,-21.0595,164.8658,28.63,52,20,2.32,NC,1700195262
187,prince albert,53.2001,-105.7677,0.97,64,75,7.2,CA,1700195262
188,kopong,-24.4833,25.8833,19.13,88,75,3.09,BW,1700195263
189,tromso,69.6496,18.957,1.01,64,75,5.14,NO,1700195263
190,kerikeri,-35.2268,173.9474,23.84,72,82,0.45,NZ,1700195263
191,farafangana,-22.8167,47.8333,22.1,85,96,2.7,MG,1700195263
192,khawr fakkan,25.3313,56.342,21.03,82,95,2.06,AE,1700195263
193,teknaf,20.8624,92.3058,23.81,88,100,8.1,BD,1700195263
194,morshansk,53.4435,41.8107,0.54,98,100,0.97,RU,1700195264
195,bamboo flat,11.7,92.7167,31.05,74,40,4.12,IN,1700195264
196,karaton,-6.3424,106.1045,33.47,51,100,0.58,ID,1700195264
197,kimbe,-5.5502,150.1429,31.63,53,22,1.69,PG,1700195264
198,manokwari,-0.8667,134.0833,29.1,74,15,3.28,ID,1700195264
199,sanchor,24.7553,71.7722,25.0,26,3,1.2,IN,1700195264
200,malpica,43.3228,-8.8105,9.99,74,80,1.91,ES,1700195264
201,nadi,-17.8,177.4167,29.0,70,20,5.66,FJ,1700194993
202,san patricio,28.017,-97.5169,18.24,87,92,2.75,US,1700195265
203,avarua,-21.2078,-159.775,23.03,68,100,6.69,CK,1700195265
204,dame-marie,18.5667,-74.4167,25.31,80,100,1.11,HT,1700195265
205,saipan,15.1355,145.701,31.39,66,20,8.23,MP,1700195265
206,maues,-3.3836,-57.7186,29.06,44,46,1.45,BR,1700195265
207,hawaiian paradise park,19.5933,-154.9731,21.73,95,100,1.54,US,1700195265
208,mossel bay,-34.1831,22.146,22.96,71,80,1.49,ZA,1700195266
209,mandapam,9.2833,79.1167,27.72,79,100,5.59,IN,1700195266
210,tchintabaraden,15.8969,5.7985,22.0,25,0,4.33,NE,1700195266
211,odesskoye,54.2111,72.9651,1.63,89,46,2.62,RU,1700195266
212,port alfred,-33.5906,26.891,18.43,95,66,0.76,ZA,1700195266
213,rongelap,11.1635,166.8941,28.13,81,22,7.83,MH,1700195266
214,guerrero negro,27.9769,-114.0611,20.37,92,94,4.04,MX,1700195266
215,horta,38.5333,-28.6333,20.57,92,100,8.49,PT,1700195267
216,sola,-13.8833,167.55,26.35,80,42,6.57,VU,1700195267
217,eraan,9.0629,117.7016,30.76,64,99,3.93,PH,1700195267
218,dwarka,22.2394,68.9678,27.21,46,4,5.98,IN,1700195267
219,nagqu,31.5,92.0,-2.92,48,68,2.62,CN,1700195267
220,xiaoweizhai,26.1903,107.5125,16.34,40,34,2.62,CN,1700195267
221,colares,38.7992,-9.4469,18.2,94,94,5.81,PT,1700195267
222,okha,53.5739,142.9478,-0.04,86,99,2.42,RU,1700195268
223,chaman,30.9236,66.4512,17.11,23,100,1.6,PK,1700195268
224,fortuna,40.5982,-124.1573,11.86,94,0,3.09,US,1700195268
225,zaruma,-3.6833,-79.6167,17.0,91,81,0.69,EC,1700195268
226,santiago de cao,-7.9589,-79.2392,18.07,94,100,4.63,PE,1700195268
227,khash,28.2211,61.2158,14.75,64,78,1.66,IR,1700195268
228,daru,-9.0763,143.2092,28.99,63,7,4.99,PG,1700195269
229,kotabumi,-4.8333,104.9,33.88,52,68,0.88,ID,1700195269
230,orapa,-21.2833,25.3667,23.57,34,91,2.88,BW,1700195269
231,giridih,24.1833,86.3,25.17,60,6,3.85,IN,1700195269
232,nazca,-14.8333,-74.95,21.31,66,100,2.3,PE,1700195269
233,nar'yan-mar,67.6713,53.087,-16.61,99,66,2.24,RU,1700195269
234,golfito,8.639,-83.166,24.21,97,100,0.79,CR,1700195269
235,geraldton,-28.7667,114.6,33.23,16,0,8.75,AU,1700195066
236,udachny,66.4167,112.4,-10.86,85,98,2.67,RU,1700195062
237,cobija,-11.0267,-68.7692,27.58,58,47,1.15,BO,1700195270
238,carinhanha,-14.3047,-43.765,26.52,49,6,2.18,BR,1700195270
239,chonchi,-42.6128,-73.8092,7.56,93,82,3.97,CL,1700195270
240,erattupetta,9.7,76.7833,29.07,78,54,0.4,IN,1700195270
241,kuqa,41.7278,82.9364,6.4,33,8,1.65,CN,1700195270
242,tabuan,9.5156,122.8506,30.47,64,87,4.12,PH,1700195270
243,ketchikan,55.3422,-131.6461,9.99,100,100,4.63,US,1700195271
244,suva,-18.1416,178.4415,27.71,78,75,3.6,FJ,1700195271
245,port-gentil,-0.7193,8.7815,26.11,85,97,4.42,GA,1700195271
246,dimona,31.0667,35.0333,14.56,89,0,1.02,IL,1700195271
247,sabang,5.8933,95.3214,27.38,79,100,2.55,ID,1700195271
248,kapuskasing,49.4169,-82.4331,9.0,87,100,6.17,CA,1700195271
249,jinxiang,27.4327,120.6062,15.65,41,17,2.43,CN,1700195271
250,tamanrasset,22.785,5.5228,13.95,41,0,0.0,DZ,1700195271
251,charef,34.621,2.795,10.59,43,59,0.84,DZ,1700195271
252,kidal,18.4411,1.4078,21.48,22,0,4.85,ML,1700195178
253,turpan,42.9333,89.1667,8.6,34,2,0.45,CN,1700195272
254,hechuan,29.9947,106.2572,18.27,39,100,1.25,CN,1700195225
255,rabo de peixe,37.8,-25.5833,21.1,99,75,6.17,PT,1700195272
256,jerantut,3.936,102.3626,31.1,62,83,1.21,MY,1700195272
257,punta arenas,-53.15,-70.9167,4.06,81,40,3.6,CL,1700195272
258,iqaluit,63.7506,-68.5145,-1.15,86,75,8.23,CA,1700195272
259,zarghun shahr,32.8473,68.4457,9.95,24,99,0.77,AF,1700195272
260,sisimiut,66.9395,-53.6735,-5.8,79,92,5.01,GL,1700195274
261,chernyshevskiy,63.0128,112.4714,-2.78,87,100,4.63,RU,1700195274
262,trenton,40.217,-74.7429,11.5,70,0,0.0,US,1700195012
263,la passe,45.5549,-0.8967,9.13,81,99,3.59,FR,1700195274
264,kadiri,14.1167,78.1667,26.23,62,98,2.72,IN,1700195274
265,orsa,54.5153,30.4053,-3.6,81,37,3.13,BY,1700195274
266,vernon,50.2581,-119.2691,1.74,82,57,2.57,CA,1700195017
267,burabay,53.0838,70.3138,1.14,88,79,1.92,KZ,1700195275
268,chiavenna,46.3216,9.3986,10.94,70,7,4.26,IT,1700195275
269,howard springs,-12.497,131.047,32.71,68,33,5.13,AU,1700195275
270,damaturu,11.747,11.9608,22.22,34,38,3.63,NG,1700195275
271,constantia,44.1833,28.65,4.38,62,100,2.82,RO,1700195275
272,chake chake,-5.2459,39.7666,25.26,91,100,3.14,TZ,1700195275
273,kourou,5.1552,-52.6478,27.03,92,100,3.29,GF,1700195276
274,laguna,38.421,-121.4238,16.71,78,20,1.54,US,1700195276
275,freetown,8.484,-13.2299,26.06,86,2,1.23,SL,1700195276
276,fale old settlement,-9.3852,-171.2468,29.87,68,86,1.7,TK,1700195276
277,xai-xai,-25.0519,33.6442,20.11,71,94,4.44,MZ,1700195276
278,hamilton,39.1834,-84.5333,16.05,64,100,3.09,US,1700195276
279,tome acu,-2.4189,-48.1522,25.03,76,24,1.11,BR,1700195276
280,afaahiti,-17.75,-149.2833,26.93,81,92,10.55,PF,1700195277
281,hadibu,12.65,54.0333,27.25,82,49,4.13,YE,1700195277
282,vila franca do campo,37.7167,-25.4333,21.6,99,100,9.78,PT,1700195277
283,susuman,62.7833,148.1667,-29.34,99,72,1.24,RU,1700195277
284,waingapu,-9.6567,120.2641,29.73,67,54,2.16,ID,1700195277
285,vila velha,-20.3297,-40.2925,24.97,86,0,7.72,BR,1700195277
286,bakanas,44.8081,76.2772,13.21,26,36,6.49,KZ,1700195277
287,caleta de carquin,-11.0925,-77.6267,19.6,88,100,4.71,PE,1700195278
288,ola,59.5833,151.2833,-13.25,73,8,1.6,RU,1700195278
289,la'ie,21.6477,-157.9253,25.0,69,100,4.02,US,1700195278
290,vilyuchinsk,52.9306,158.4028,2.18,77,100,3.98,RU,1700195278
291,torghay,49.6339,63.4981,6.04,81,100,2.39,KZ,1700195278
292,belem de sao francisco,-8.7539,-38.9658,27.3,53,63,7.56,BR,1700195278
293,auki,-8.7676,160.7034,28.34,74,51,0.61,SB,1700195278
294,sao joao dos inhamuns,-6.0,-40.2833,25.31,61,22,6.9,BR,1700195279
295,rio preto da eva,-2.6994,-59.6997,27.21,53,11,1.44,BR,1700195279
296,glace bay,46.1969,-59.957,5.99,74,75,5.36,CA,1700195243
297,novodvinsk,64.4165,40.8122,-5.68,84,79,4.34,RU,1700195279
298,kartaly,53.0522,60.6467,2.79,97,100,5.36,RU,1700195279
299,page,36.9147,-111.4558,13.71,59,0,0.89,US,1700195279
300,parauna,-16.9478,-50.4486,25.82,44,36,0.82,BR,1700195279
301,san luis de la loma,17.2706,-100.8939,26.51,89,15,1.72,MX,1700195280
302,saint-pierre,-21.3393,55.4781,26.98,88,100,8.75,RE,1700195280
303,tsiombe,-25.3,45.4833,22.5,67,13,7.62,MG,1700195280
304,howrah,22.5892,88.3103,25.0,83,100,6.17,IN,1700195280
305,moratuwa,6.773,79.8816,30.01,75,35,1.71,LK,1700195280
306,sao miguel,-5.4667,-35.3667,24.43,76,10,4.8,BR,1700195280
307,balsta,59.5671,17.5278,-0.4,78,98,2.77,SE,1700195280
308,pacific grove,36.6177,-121.9166,15.92,85,100,1.79,US,1700195280
309,cidreira,-30.1811,-50.2056,20.37,85,96,3.74,BR,1700195281
310,kralendijk,12.15,-68.2667,28.99,84,81,7.2,BQ,1700195281
311,puerto penasco,31.3167,-113.5333,19.39,87,100,1.34,MX,1700195281
312,luau,-10.7073,22.2247,16.99,97,95,0.6,AO,1700195281
313,kill devil hills,36.0307,-75.676,16.1,87,0,1.54,US,1700195281
314,tremp,42.167,0.8949,9.81,85,99,1.75,ES,1700195281
315,kyzylorda,44.8528,65.5092,9.01,57,75,4.0,KZ,1700195282
316,uturoa,-16.7333,-151.4333,26.12,73,89,10.11,PF,1700195282
317,miles city,46.4083,-105.8406,-1.46,86,0,3.09,US,1700195282
318,klaksvik,62.2266,-6.589,3.51,55,91,3.75,FO,1700195283
319,ceres,37.5949,-120.9577,15.02,87,0,0.0,US,1700195283
320,island harbour,50.724,-1.2758,8.32,92,29,0.89,GB,1700195283
321,kudahuvadhoo,2.6708,72.8944,28.25,73,30,2.41,MV,1700195283
322,weno,7.4515,151.8468,27.97,83,100,0.0,FM,1700195284
323,coronel suarez,-37.4547,-61.9334,13.54,41,10,4.28,AR,1700195284
324,grand-lahou,5.1367,-5.0242,26.13,83,90,1.4,CI,1700195284
325,vizinga,61.0749,50.1031,-10.06,93,73,2.32,RU,1700195284
326,otjiwarongo,-20.4637,16.6477,16.4,84,43,1.86,NA,1700195284
327,dazhou,31.2159,107.5009,14.34,48,99,0.4,CN,1700195285
328,asmar,35.0333,71.3581,18.2,23,20,3.33,AF,1700195285
329,winslow,35.0242,-110.6974,13.1,67,0,6.17,US,1700195263
330,machico,32.7,-16.7667,20.95,72,40,2.57,PT,1700195285
331,emerald,-23.5333,148.1667,40.55,100,24,4.85,AU,1700195285
332,arraial do cabo,-22.9661,-42.0278,23.59,90,100,6.8,BR,1700195286
333,porto novo,6.4965,2.6036,26.9,84,16,0.49,BJ,1700195286
334,hotan,37.0997,79.9269,6.69,21,0,0.85,CN,1700195286
335,martapura,-3.4167,114.85,31.05,74,40,3.09,ID,1700195286
336,mammoth lakes,37.6485,-118.9721,0.4,92,100,0.0,US,1700195286
337,mermoz boabab,14.7065,-17.4758,22.31,65,9,5.29,SN,1700195287
338,shitanjing,39.2342,106.3439,7.93,11,0,2.32,CN,1700195287
339,bardai,11.65,7.2333,21.88,44,89,4.75,NG,1700195287
340,pocora,10.1718,-83.6044,23.81,99,100,0.75,CR,1700195287
341,fukuecho,32.6881,128.8419,13.2,62,75,5.66,JP,1700195287
342,georgievka,49.3314,81.5761,5.17,49,98,6.61,KZ,1700195288
343,fort st. john,56.2499,-120.8529,2.94,70,100,9.77,CA,1700195288
344,victoriaville,46.0501,-71.9658,2.49,81,100,3.71,CA,1700195288
345,pangody,65.85,74.4859,-18.91,94,100,3.73,RU,1700195288
346,aykhal,66.0,111.5,-12.06,97,96,2.5,RU,1700195288
347,katsuura,35.1333,140.3,18.01,93,100,14.28,JP,1700195288
348,saint-philippe,-21.3585,55.7679,26.17,90,90,5.8,RE,1700195289
349,san felipe,10.3399,-68.7425,23.03,98,98,0.34,VE,1700195289
350,mastic beach,40.7668,-72.8521,11.66,92,0,0.0,US,1700195289
351,kapa'a,22.0752,-159.319,26.99,75,40,7.2,US,1700195289
352,yasnyy,51.0333,59.8742,3.89,90,100,2.09,RU,1700195289
353,sitka,57.0531,-135.33,6.94,81,100,2.57,US,1700195289
354,trincomalee,8.5711,81.2335,27.51,80,79,1.46,LK,1700195289
355,myanaung,18.2833,95.3167,25.12,80,100,5.06,MM,1700195290
356,rabaul,-4.1967,152.1721,28.67,70,35,5.21,PG,1700195290
357,peace river,56.2501,-117.286,4.17,70,100,7.2,CA,1700195290
358,fada,9.5667,8.3,21.44,40,87,2.91,NG,1700195290
359,puerto colombia,10.9878,-74.9547,28.05,80,100,2.11,CO,1700195290
360,kumasi,6.6885,-1.6244,22.12,97,100,1.41,GH,1700195290
361,trujillo,-8.116,-79.03,17.98,94,100,4.63,PE,1700195291
362,brezina,33.0989,1.2608,12.49,32,1,1.24,DZ,1700195291
363,taunggyi,20.7833,97.0333,18.72,85,100,0.98,MM,1700195291
364,antalya,36.7741,30.7178,16.16,48,0,6.17,TR,1700195284
365,masindi,1.6744,31.715,18.39,98,99,1.21,UG,1700195291
366,jinghong,21.991,100.7341,19.01,80,100,0.74,CN,1700195292
367,akureyri,65.6835,-18.0878,-7.04,93,95,1.03,IS,1700195292
368,coquimbo,-29.9533,-71.3436,12.85,82,0,2.06,CL,1700195292
369,ulsteinvik,62.3432,5.8487,3.75,73,91,2.68,NO,1700195292
370,hilo,19.7297,-155.09,21.85,95,100,1.54,US,1700195292
371,kedougou,12.5579,-12.1743,22.66,26,3,0.77,SN,1700195292
372,kargasok,59.0556,80.8572,-0.02,100,100,2.24,RU,1700195292
373,griffith,41.5284,-87.4237,16.38,67,75,7.2,US,1700195293
374,manilva,36.3765,-5.2503,13.26,43,40,1.67,ES,1700195293
375,erenhot,43.6475,111.9767,-2.59,29,0,2.75,CN,1700195293
376,bereeda,11.8704,51.0579,27.67,81,81,4.59,SO,1700195293
377,east london,-33.0153,27.9116,18.52,88,0,2.06,ZA,1700195090
378,norrtalje,59.758,18.705,1.68,75,100,1.21,SE,1700195293
379,mata-utu,-13.2816,-176.1745,29.5,73,65,2.67,WF,1700195294
380,levuka,50.1834,-105.4011,-2.16,81,100,6.71,CA,1700195294
381,nemuro,43.3236,145.575,10.63,79,100,11.21,JP,1700195294
382,greymouth,-42.4667,171.2,12.47,84,100,6.63,NZ,1700195294
383,nova sintra,14.8667,-24.7167,23.39,71,98,3.94,CV,1700195294
384,tazovsky,67.4667,78.7,-20.16,98,17,3.94,RU,1700195294
385,mil'kovo,55.6078,37.7956,-0.87,81,47,3.69,RU,1700195295
386,urangan,-25.3,152.9,24.89,84,61,10.41,AU,1700195295
387,maracacume,-2.0428,-45.9592,22.58,93,22,0.25,BR,1700195295
388,arteche,12.2645,125.4048,28.27,82,100,5.92,PH,1700195295
389,berezovyy,51.6667,135.7,-2.91,61,100,0.51,RU,1700195295
390,san juan de miraflores,-12.1629,-76.9635,20.65,80,100,4.13,PE,1700195296
391,el calafate,-50.3408,-72.2768,5.08,71,2,4.28,AR,1700195296
392,vodnyy,63.5046,53.4095,-14.21,95,64,3.49,RU,1700195296
393,camana,-16.6228,-72.7111,19.28,88,99,4.69,PE,1700195296
394,selfoss,63.9331,-20.9971,3.42,81,99,3.74,IS,1700195297
395,laizhou,37.1717,119.9214,5.35,40,43,11.01,CN,1700195297
396,grand falls-windsor,48.9332,-55.6649,-0.28,93,99,2.48,CA,1700195297
397,galliano,29.4422,-90.2992,19.0,88,40,1.54,US,1700195297
398,yakymivka,46.6897,35.1536,4.21,80,74,5.3,UA,1700195297
399,major isidoro,-9.5322,-36.985,24.02,72,9,4.88,BR,1700195297
400,ta`u,-14.2336,-169.5144,28.35,80,98,4.74,AS,1700195298
401,hampstead,42.8745,-71.1812,7.92,80,0,0.45,US,1700195298
402,whangarei,-35.7317,174.3239,24.75,47,97,3.35,NZ,1700195298
403,chui,-33.6971,-53.4616,13.47,80,6,2.48,UY,1700195298
404,yeraliyev,43.2,51.65,11.67,84,82,6.69,KZ,1700195298
405,marica,-22.9194,-42.8186,27.97,83,100,5.48,BR,1700195298
406,san antonio de pale,-1.4014,5.6325,26.7,83,88,5.53,GQ,1700195298
407,baruun-urt,46.6806,113.2792,-11.54,80,4,3.6,MN,1700195299
408,luganville,-15.5333,167.1667,27.41,72,42,3.07,VU,1700195299
409,pul-e khumri,35.9446,68.7151,19.59,15,66,2.06,AF,1700195299
410,karratha,-20.7377,116.8463,31.83,36,0,7.57,AU,1700195161
411,nouadhibou,20.931,-17.0347,21.99,46,0,4.63,MR,1700195299
412,krasnyy yar,46.5331,48.3456,7.96,87,100,3.8,RU,1700195299
413,suzun,53.7841,82.3116,4.13,96,100,3.39,RU,1700195299
414,agadez,19.75,10.25,17.84,31,0,3.95,NE,1700195300
415,flying fish cove,-10.4217,105.6791,26.82,78,100,4.12,CX,1700195300
416,lakatoro,-16.0999,167.4164,27.64,65,10,3.43,VU,1700195300
417,kiffa,16.6166,-11.4045,23.5,16,79,4.68,MR,1700195300
418,luwuk,-0.9516,122.7875,30.02,75,74,0.68,ID,1700195300
419,magadan,59.5667,150.8,-13.59,74,4,1.56,RU,1700195137
420,anzio,41.4853,12.6179,19.13,70,83,8.48,IT,1700195300
421,macapa,0.0389,-51.0664,27.99,78,0,3.6,BR,1700195083
422,levoca,49.0217,20.5921,4.63,100,100,1.04,SK,1700195301
423,bengkulu,-3.8004,102.2655,28.08,74,84,2.51,ID,1700195301
424,dalbandin,28.8947,64.4101,20.84,33,90,2.86,PK,1700195301
425,luderitz,-26.6481,15.1594,17.7,70,53,1.83,NA,1700195302
426,mutsu,41.2894,141.2169,14.22,86,100,11.24,JP,1700195302
427,alo,7.4178,6.7371,23.61,71,54,0.4,NG,1700195302
428,cambria,35.5641,-121.0808,16.65,92,4,1.34,US,1700195153
429,ono,34.85,134.9333,16.06,55,57,6.84,JP,1700195302
430,tynda,55.1667,124.7167,-10.66,80,70,0.8,RU,1700195302
431,onguday,50.75,86.15,2.19,74,100,1.38,RU,1700195303
432,dassa-zoume,7.75,2.1833,24.05,80,39,1.01,BJ,1700195303
433,twon-brass,4.3151,6.2418,27.44,80,74,3.2,NG,1700195303
434,hlybokaye,55.1382,27.6879,-3.55,81,47,2.74,BY,1700195303
435,mangrol,21.1167,70.1167,27.05,40,1,5.43,IN,1700195303
436,katoya,23.65,88.1333,23.04,86,93,4.64,IN,1700195303
437,jalai nur,49.45,117.7,-6.42,67,2,1.62,CN,1700195303
438,westport,41.1415,-73.3579,11.61,81,0,0.0,US,1700195281
439,iquique,-20.2208,-70.1431,18.02,73,70,0.77,CL,1700195304
440,south hedland,-20.4089,118.5983,32.96,52,0,8.75,AU,1700195304
441,al fallujah,33.3538,43.7795,11.94,75,0,2.04,IQ,1700195304
442,huarmey,-10.0681,-78.1522,20.06,86,99,4.8,PE,1700195304
443,zheleznogorsk-ilimskiy,56.5768,104.1217,-2.57,84,100,4.92,RU,1700195304
444,harar,9.3094,42.1258,17.68,75,66,0.25,ET,1700195304
445,kununurra,-15.7667,128.7333,39.99,29,11,3.6,AU,1700195305
446,codrington,-38.2667,141.9667,16.63,52,32,6.02,AU,1700195305
447,basco,20.4487,121.9702,24.02,76,98,15.03,PH,1700195305
448,langzhong,31.5504,105.9938,14.39,42,91,0.56,CN,1700195305
449,yonan-up,37.9089,126.1611,2.88,66,96,7.16,KP,1700195305
450,kuta,-8.7233,115.1723,30.97,70,20,5.66,ID,1700195146
451,rio grande,-32.035,-52.0986,18.86,78,14,3.87,BR,1700195307
452,arkhangel'sk,64.5401,40.5433,-5.49,84,85,4.85,RU,1700195272
453,leninskoye,41.7589,69.3864,17.02,22,100,0.68,KZ,1700195307
454,aioun,16.6614,-9.6149,23.72,16,24,4.52,MR,1700195307
455,zambezi,-13.5432,23.1047,18.5,61,86,1.46,ZM,1700195307
456,eureka,40.8021,-124.1637,12.01,92,2,0.45,US,1700195307
457,fedorovskiy,45.0972,40.9517,7.14,87,84,6.75,RU,1700195307
458,iraucuba,-3.7461,-39.7833,24.88,80,12,2.88,BR,1700195308
459,netrakona,24.8833,90.7167,22.73,87,100,3.99,BD,1700195308
460,nova olimpia,-14.7972,-57.2881,30.91,35,83,2.29,BR,1700195308
461,usinsk,65.9939,57.5281,-11.8,96,100,4.66,RU,1700195308
462,namsos,64.4662,11.4957,-4.97,79,59,7.2,NO,1700195308
463,kismayo,-0.3582,42.5454,27.18,81,94,2.8,SO,1700195308
464,kirkmichael,54.2856,-4.5875,9.88,83,24,4.45,IM,1700195309
465,taltal,-25.4,-70.4833,16.12,77,98,0.22,CL,1700195309
466,guasave,25.5667,-108.45,25.0,62,89,2.24,MX,1700195140
467,sim,54.993,57.6982,2.84,99,100,1.14,RU,1700195309
468,hasaki,35.7333,140.8333,14.22,90,100,14.38,JP,1700195309
469,nizhnesortymskiy,62.4397,71.7603,-9.37,96,100,3.37,RU,1700195310
470,visby,57.6409,18.296,1.69,93,75,3.6,SE,1700195310
471,lorengau,-2.0226,147.2712,28.3,78,36,3.4,PG,1700195310
472,mhamid,29.82,-5.72,17.72,25,0,2.74,MA,1700195310
473,lafia,8.4833,8.5167,24.3,51,95,0.8,NG,1700195310
474,purificacion,3.8587,-74.9313,25.07,71,96,1.18,CO,1700195310
475,vejle,55.7093,9.5357,4.23,91,100,5.17,DK,1700195310
476,fruita,39.1589,-108.729,10.51,76,75,2.06,US,1700195172
477,cabedelo,-6.9811,-34.8339,24.37,72,35,5.27,BR,1700195311
478,cadale,2.7603,46.3222,28.6,72,12,3.69,SO,1700195311
479,mana,5.6592,-53.7767,25.82,92,97,3.51,GF,1700195311
480,ciudad del carmen,18.6333,-91.8333,25.33,67,70,4.06,MX,1700195311
481,ritterhude,53.1811,8.7216,2.7,99,20,2.06,DE,1700195311
482,matoury,4.8483,-52.3317,26.98,89,40,2.06,GF,1700195312
483,nayoro,44.3506,142.4578,7.08,97,100,2.05,JP,1700195312
484,avon,41.4517,-82.0354,16.81,42,75,6.17,US,1700195095
485,bodden town,19.2833,-81.25,26.63,95,99,4.95,KY,1700195312
486,progreso,21.2833,-89.6667,23.39,82,7,4.56,MX,1700195312
487,tenno,39.9,139.9667,12.56,89,100,5.47,JP,1700195312
488,sungai raya,0.7,108.9,30.62,65,73,2.49,ID,1700195312
489,la ronge,55.1001,-105.2842,-2.86,74,75,1.54,CA,1700195312
490,cabo san lucas,22.8909,-109.9124,26.95,68,57,1.16,MX,1700195313
491,carhuaz,-9.2819,-77.6447,15.33,90,100,1.87,PE,1700195313
492,tadine,-21.55,167.8833,24.42,70,39,2.96,NC,1700195313
493,omaruru,-21.4333,15.9333,20.22,66,20,2.17,NA,1700195313
494,canutama,-6.5339,-64.3831,27.57,47,17,0.77,BR,1700195313
495,manali,13.1667,80.2667,29.05,87,67,5.58,IN,1700195314
496,pecos,31.4229,-103.4932,21.84,77,0,3.09,US,1700195314
497,sinabang,2.4803,96.3801,27.0,81,100,1.18,ID,1700195314
498,quelimane,-17.8786,36.8883,18.97,94,20,1.54,MZ,1700195314
499,as sulayyil,20.4607,45.5779,21.14,52,37,4.34,SA,1700195314
500,sturgeon bay,44.8342,-87.377,14.22,67,40,8.75,US,1700195314
501,mejit,10.2753,170.8646,28.16,79,11,7.45,MH,1700195315
502,america dourada,-11.4553,-41.4361,23.32,72,85,2.94,BR,1700195315
503,walvis bay,-22.9575,14.5053,16.16,100,100,0.0,NA,1700195315
504,touros,-5.1989,-35.4608,25.87,72,11,5.41,BR,1700195315
505,kamloops,50.6665,-120.3192,1.43,89,100,0.0,CA,1700195157
506,dunedin,-45.8742,170.5036,11.0,73,100,2.24,NZ,1700195233
507,north bend,43.4065,-124.2243,12.7,100,40,2.57,US,1700195316
508,chos malal,-37.3781,-70.2709,10.28,47,39,11.75,AR,1700195316
509,dzhambeyty,50.2536,52.595,5.84,87,100,2.41,KZ,1700195316
510,sorong,-0.8833,131.25,29.9,66,23,2.97,ID,1700195104
511,llorente,11.4119,125.5458,28.61,79,89,5.77,PH,1700195316
512,formosa do rio preto,-11.0483,-45.1931,23.52,79,98,1.16,BR,1700195316
513,essaouira,31.5125,-9.77,14.72,77,40,2.57,MA,1700195317
514,iringa,-7.7667,35.7,17.17,81,100,1.7,TZ,1700195317
515,colonia,50.9333,6.95,6.99,92,75,1.03,DE,1700195156
516,taperoa,-7.2075,-36.8267,21.43,83,57,5.93,BR,1700195317
517,karema,-6.8205,30.4389,23.04,77,96,2.86,TZ,1700195317
518,brisas de zicatela,15.8369,-97.0419,30.29,58,40,1.54,MX,1700195317
519,pordic,48.5705,-2.8178,8.04,92,74,2.24,FR,1700195317
520,grand-bourg,15.8835,-61.3148,25.97,80,25,9.0,GP,1700195317
521,pandan,14.0453,124.1694,27.39,84,98,8.3,PH,1700195318
522,tolanaro,-25.0319,46.9987,21.04,83,75,4.12,MG,1700195318
523,tisul',55.7611,88.3122,1.71,97,100,5.36,RU,1700195318
524,porto-vecchio,41.591,9.2795,20.74,63,20,10.8,FR,1700195318
525,tobelo,1.7284,128.0095,30.33,66,72,1.21,ID,1700195319
526,sunne,59.8376,13.143,-2.77,90,15,1.69,SE,1700195319
527,aanekoski,62.6946,25.818,-8.29,93,18,1.75,FI,1700195319
528,poronaysk,49.2167,143.1167,3.39,96,100,2.09,RU,1700195319
529,dubovka,49.0583,44.829,5.53,78,69,1.79,RU,1700195319
530,kenora,49.8167,-94.4337,-3.46,86,75,3.09,CA,1700195241
531,victoria,22.2855,114.1577,21.65,27,41,8.05,HK,1700195050
532,haldensleben i,52.2891,11.4098,4.73,87,100,5.3,DE,1700195320
533,vallenar,-28.5708,-70.7581,15.88,53,18,0.74,CL,1700195320
534,kuala lipis,4.1842,102.0468,31.76,59,70,0.74,MY,1700195320
535,mogocha,53.7333,119.7667,-7.64,62,92,2.7,RU,1700195320
536,kireyevsk,53.9336,37.9279,-1.57,91,100,4.89,RU,1700195320
537,es castell,39.8795,4.2854,16.38,100,75,4.12,ES,1700195320
538,harstad,68.799,16.5293,1.2,84,100,8.05,NO,1700195320
539,az zuwaytinah,30.9522,20.1202,21.33,76,36,2.85,LY,1700195321
540,batang,-6.4846,110.7083,32.11,59,63,0.84,ID,1700195321
541,burang,30.25,81.1667,0.83,21,0,0.97,CN,1700195321
542,khamis mushait,18.3064,42.7292,13.34,82,80,2.06,SA,1700195321
543,le lavandou,43.137,6.366,15.66,50,0,1.54,FR,1700195321
544,lubang,13.8584,120.124,28.59,72,70,8.13,PH,1700195321
545,hudson,40.7168,-74.0663,14.21,60,0,6.26,US,1700195027
546,antsiranana,-12.2787,49.2917,27.42,61,40,4.12,MG,1700195322
547,mont-tremblant,46.1949,-74.6264,1.87,93,99,0.0,CA,1700195244
548,alpena,45.0617,-83.4327,16.14,66,0,6.17,US,1700195322
549,harrisburg,40.2737,-76.8844,11.04,70,0,3.6,US,1700195298
550,imperatriz,-5.5264,-47.4917,27.03,78,0,1.54,BR,1700195286
551,trinidad,-14.8333,-64.9,30.56,43,94,2.72,BO,1700195322
552,shushenskoye,53.325,91.9356,-1.16,81,100,1.71,RU,1700195323
553,pemba,-12.974,40.5178,24.39,83,20,3.6,MZ,1700195323
554,basoda,23.85,77.9333,21.98,44,0,2.96,IN,1700195323
555,sao raimundo nonato,-9.0153,-42.6994,26.7,53,54,0.39,BR,1700195041
556,ciudad lazaro cardenas,17.9583,-102.2,26.85,84,8,1.62,MX,1700195323
557,likiep,9.8251,169.3107,28.02,81,13,6.66,MH,1700195323
558,ourinhos,-22.9789,-49.8706,25.85,43,43,2.0,BR,1700195324
559,humaita,-7.5061,-63.0208,26.59,44,1,1.52,BR,1700195324
560,cacoal,-11.4386,-61.4472,26.78,43,45,2.13,BR,1700195324
561,lockwood,45.8191,-108.4149,2.37,80,0,0.0,US,1700195324
562,altay,47.8667,88.1167,0.69,63,43,2.02,CN,1700195324
